{
"type": "FeatureCollection",
"name": "migration",
"crs": { "type": "name", "properties": { "name": "urn:ogc:def:crs:OGC:1.3:CRS84" } },
"features": [
{ "type": "Feature", "properties": { "id": "relation\/7157354", "@id": "relation\/7157354", "admin_level": "2", "boundary": "refugee_camp", "fixme": "boundary,admin_level ...", "name": "Bidi Bidi Refugee Settlement", "name:en": "Bidi Bidi Refugee Settlement", "operator": "United Nations High Commissioner for Refugees (UNHCR)", "operator:type": "intergovernmental_organization", "refugee": "yes", "type": "boundary", "wikidata": "Q29569942", "wikipedia": "en:Bidi Bidi Refugee Settlement", "landuse": null, "population": null }, "geometry": { "type": "Point", "coordinates": [ 31.3759739178, 3.3963093129 ] } },
{ "type": "Feature", "properties": { "id": "relation\/8065502", "@id": "relation\/8065502", "admin_level": "2", "boundary": "refugee_camp", "fixme": null, "name": "Palorinya Refugee Settlement", "name:en": "Palorinya Refugee Settlement", "operator": "United Nations High Commissioner for Refugees (UNHCR)", "operator:type": "intergovernmental_organization", "refugee": "yes", "type": "boundary", "wikidata": null, "wikipedia": null, "landuse": "residential", "population": null }, "geometry": { "type": "Point", "coordinates": [ 31.6197920647, 3.4647423962 ] } },
{ "type": "Feature", "properties": { "id": "relation\/8112419", "@id": "relation\/8112419", "admin_level": "2", "boundary": "refugee_camp", "fixme": null, "name": "Kyangwali Refugee Settlement", "name:en": null, "operator": null, "operator:type": null, "refugee": "yes", "type": "boundary", "wikidata": null, "wikipedia": null, "landuse": "residential", "population": null }, "geometry": { "type": "Point", "coordinates": [ 30.751949543, 1.1615725313 ] } },
{ "type": "Feature", "properties": { "id": "relation\/8112488", "@id": "relation\/8112488", "admin_level": "2", "boundary": "refugee_camp", "fixme": null, "name": "Kyaka II Refugee Settlement", "name:en": null, "operator": null, "operator:type": null, "refugee": "yes", "type": "boundary", "wikidata": null, "wikipedia": null, "landuse": "residential", "population": null }, "geometry": { "type": "Point", "coordinates": [ 31.091822518, 0.3561578352 ] } },
{ "type": "Feature", "properties": { "id": "relation\/8114848", "@id": "relation\/8114848", "admin_level": "2", "boundary": "refugee_camp", "fixme": null, "name": "Nakivale Refugee Settlement", "name:en": null, "operator": null, "operator:type": null, "refugee": "yes", "type": "boundary", "wikidata": null, "wikipedia": null, "landuse": "residential", "population": null }, "geometry": { "type": "Point", "coordinates": [ 30.938232612, -0.7951899313 ] } },
{ "type": "Feature", "properties": { "id": "relation\/8114898", "@id": "relation\/8114898", "admin_level": "2", "boundary": "refugee_camp", "fixme": null, "name": "Palabek Ogili Refugee Settlement", "name:en": null, "operator": null, "operator:type": null, "refugee": "yes", "type": "boundary", "wikidata": null, "wikipedia": null, "landuse": "residential", "population": null }, "geometry": { "type": "Point", "coordinates": [ 32.4427566343, 3.3335991075 ] } },
{ "type": "Feature", "properties": { "id": "relation\/8114955", "@id": "relation\/8114955", "admin_level": "2", "boundary": "refugee_camp", "fixme": null, "name": "Palabek Kal Refugee Settlement", "name:en": null, "operator": null, "operator:type": null, "refugee": "yes", "type": "boundary", "wikidata": null, "wikipedia": null, "landuse": "residential", "population": null }, "geometry": { "type": "Point", "coordinates": [ 32.5345826371, 3.3945390988 ] } },
{ "type": "Feature", "properties": { "id": "relation\/8114976", "@id": "relation\/8114976", "admin_level": "2", "boundary": "refugee_camp", "fixme": null, "name": "Palabek Gem Refugee Settlement", "name:en": null, "operator": null, "operator:type": null, "refugee": "yes", "type": "boundary", "wikidata": null, "wikipedia": null, "landuse": "residential", "population": null }, "geometry": { "type": "Point", "coordinates": [ 32.5748353518, 3.384045638 ] } },
{ "type": "Feature", "properties": { "id": "relation\/8115039", "@id": "relation\/8115039", "admin_level": "2", "boundary": "refugee_camp", "fixme": null, "name": "Kiryandongo Refugee Settlement", "name:en": null, "operator": "UNCHR", "operator:type": null, "refugee": "yes", "type": "boundary", "wikidata": null, "wikipedia": null, "landuse": "residential", "population": "29000" }, "geometry": { "type": "Point", "coordinates": [ 32.1863891364, 1.9331085676 ] } },
{ "type": "Feature", "properties": { "id": "relation\/8115228", "@id": "relation\/8115228", "admin_level": "2", "boundary": "refugee_camp", "fixme": null, "name": "Nyumanzi Refugee Settlement", "name:en": null, "operator": null, "operator:type": null, "refugee": "yes", "type": "boundary", "wikidata": null, "wikipedia": null, "landuse": "residential", "population": null }, "geometry": { "type": "Point", "coordinates": [ 31.9415068806, 3.4687052047 ] } },
{ "type": "Feature", "properties": { "id": "relation\/8115383", "@id": "relation\/8115383", "admin_level": "2", "boundary": "refugee_camp", "fixme": null, "name": "Rwamwanja Refugee Settlement", "name:en": null, "operator": null, "operator:type": null, "refugee": "yes", "type": "boundary", "wikidata": null, "wikipedia": null, "landuse": "residential", "population": null }, "geometry": { "type": "Point", "coordinates": [ 30.6787840415, 0.3007577895 ] } },
{ "type": "Feature", "properties": { "id": "relation\/8193786", "@id": "relation\/8193786", "admin_level": "2", "boundary": "refugee_camp", "fixme": null, "name": "Maaji Refugee Settlement", "name:en": null, "operator": "UNHCR", "operator:type": null, "refugee": "yes", "type": "boundary", "wikidata": null, "wikipedia": null, "landuse": "residential", "population": null }, "geometry": { "type": "Point", "coordinates": [ 31.6538689738, 3.2111875354 ] } },
{ "type": "Feature", "properties": { "id": "way\/616889250", "@id": "way\/616889250", "admin_level": "2", "boundary": "refugee_camp", "fixme": null, "name": "Mungula 1", "name:en": null, "operator": null, "operator:type": null, "refugee": "yes", "type": "boundary", "wikidata": null, "wikipedia": null, "landuse": "residential", "population": null }, "geometry": { "type": "Point", "coordinates": [ 31.7897252872, 3.1906781299 ] } },
{ "type": "Feature", "properties": { "id": "way\/616911188", "@id": "way\/616911188", "admin_level": "2", "boundary": "refugee_camp", "fixme": null, "name": "Olua 2 Refugee Settlement", "name:en": null, "operator": null, "operator:type": null, "refugee": "yes", "type": "boundary", "wikidata": null, "wikipedia": null, "landuse": "residential", "population": null }, "geometry": { "type": "Point", "coordinates": [ 31.8858982786, 3.2868692312 ] } },
{ "type": "Feature", "properties": { "id": "way\/616911189", "@id": "way\/616911189", "admin_level": "2", "boundary": "refugee_camp", "fixme": null, "name": "Olua 1 Refugee Settlement", "name:en": null, "operator": null, "operator:type": null, "refugee": "yes", "type": "boundary", "wikidata": null, "wikipedia": null, "landuse": "residential", "population": null }, "geometry": { "type": "Point", "coordinates": [ 31.8968059991, 3.3035906313 ] } },
{ "type": "Feature", "properties": { "id": "way\/616917358", "@id": "way\/616917358", "admin_level": "2", "boundary": "refugee_camp", "fixme": null, "name": "Mireyi Refugee Settlement", "name:en": null, "operator": "UNHCR", "operator:type": "NGO", "refugee": null, "type": "boundary", "wikidata": null, "wikipedia": null, "landuse": "residential", "population": null }, "geometry": { "type": "Point", "coordinates": [ 31.7813037316, 3.336723988 ] } },
{ "type": "Feature", "properties": { "id": "way\/616941583", "@id": "way\/616941583", "admin_level": "2", "boundary": "refugee_camp", "fixme": null, "name": "Agojo Refugee Settlement", "name:en": null, "operator": null, "operator:type": null, "refugee": "yes", "type": "boundary", "wikidata": null, "wikipedia": null, "landuse": "residential", "population": null }, "geometry": { "type": "Point", "coordinates": [ 31.7365695247, 3.412762983 ] } },
{ "type": "Feature", "properties": { "id": "way\/616947537", "@id": "way\/616947537", "admin_level": "2", "boundary": "refugee_camp", "fixme": null, "name": "Oliji Refugee Settlement", "name:en": null, "operator": null, "operator:type": null, "refugee": "yes", "type": "boundary", "wikidata": null, "wikipedia": null, "landuse": "residential", "population": null }, "geometry": { "type": "Point", "coordinates": [ 31.7268132096, 3.4745018939 ] } },
{ "type": "Feature", "properties": { "id": "way\/616947538", "@id": "way\/616947538", "admin_level": "2", "boundary": "refugee_camp", "fixme": null, "name": "Alere Refugee Settlement", "name:en": null, "operator": null, "operator:type": null, "refugee": "yes", "type": "boundary", "wikidata": null, "wikipedia": null, "landuse": "residential", "population": null }, "geometry": { "type": "Point", "coordinates": [ 31.7496916384, 3.4571076941 ] } },
{ "type": "Feature", "properties": { "id": "way\/616957136", "@id": "way\/616957136", "admin_level": "2", "boundary": "refugee_camp", "fixme": null, "name": "Baratuku Refugee Settlement", "name:en": null, "operator": null, "operator:type": null, "refugee": "yes", "type": "boundary", "wikidata": null, "wikipedia": null, "landuse": "residential", "population": null }, "geometry": { "type": "Point", "coordinates": [ 31.8853164092, 3.4719697764 ] } },
{ "type": "Feature", "properties": { "id": "way\/616957139", "@id": "way\/616957139", "admin_level": "2", "boundary": "refugee_camp", "fixme": null, "name": "Elema Refugee Settlement", "name:en": null, "operator": null, "operator:type": null, "refugee": "yes", "type": "boundary", "wikidata": null, "wikipedia": null, "landuse": "residential", "population": null }, "geometry": { "type": "Point", "coordinates": [ 31.9210449113, 3.4857276828 ] } }
]
}
